stop_id,stop_code,stop_name,stop_desc,stop_lat,stop_lon,zone_id,stop_url,location_type,parent_station
7502,558,Estação Ermesinde,,41.2166917263874,-8.55363312700348,,,,
7503,559,Forum Ermesinde,,41.2157383415464,-8.55311898027224,,,,
7504,560,Igreja Ermesinde,,41.2191084535178,-8.55312477719995,,,,
7505,223,MaiaShopping,,41.2207344117503,-8.56075255304174,,,,
7506,224,MaiaShopping,,41.220706812897,-8.56066147859938,,,,
7507,561,Rodrigues Freitas,,41.2218512758232,-8.55779334562564,,,,
7508,562,Rio Leça,,41.2247624998985,-8.55515485179169,,,,
7509,563,Travagem,,41.2263942956063,-8.55395434271648,,,,
7510,218,TV Simões Lopes,,41.228732378918,-8.55530416804973,,,,
7511,219,Sampaio,,41.2297519611144,-8.55844262637957,,,,
7512,220,Central Sampaio,,41.2296154491683,-8.56049844060948,,,,
7513,221,Pedro Hispano,,41.2283367587137,-8.56237864803876,,,,
7514,226,Ardegães,,41.227196095935,-8.56691143924415,,,,
7515,227,Prof. Augusto Rezende,,41.2280097777972,-8.56819770673678,,,,
7516,228,Centro Inspecções,,41.2290901021685,-8.56989332321449,,,,
7517,0,Pinhal,,41.2307495981973,-8.57251394197929,,,,
7518,230,Primavera (Nogueira),,41.230970396279,-8.57529991505656,,,,
7519,231,Monte Penedo,,41.22862738658,-8.58017829867215,,,,
7520,232,Rio,,41.2285736514584,-8.58614533539108,,,,
7521,233,António Moreira da Silva,,41.2322234396245,-8.59168750943438,,,,
7522,234,TV Dr. Augusto Martins,,41.2331418988479,-8.59309528364955,,,,
7523,235,Jorge Ferreirinha,,41.2346493024011,-8.59570775298564,,,,
7524,236,Agostinho Silva Rocha,,41.2357245109394,-8.59771541276637,,,,
7525,237,Cavaco,,41.2373127785705,-8.60224714760758,,,,
7526,238,Souto,,41.237092165382,-8.60566388389623,,,,
7527,239,D. Manuel II,,41.2368108585541,-8.60891597706354,,,,
7528,240,Altos,,41.2365134145594,-8.61310499713965,,,,
7529,241,Estádio Maia,,41.2363176892434,-8.61572543947149,,,,
7530,242,Sobreiro,,41.2338843264596,-8.62050363176033,,,,
7531,837,Maia,,41.2327286676197,-8.62367591603042,,,,
7532,477,Maia - Câmara Municipal,,41.2325101201991,-8.62139921322307,,,,
7533,283,Sobreiro,,41.2339332767881,-8.62045332128012,,,,
7534,284,Estádio Maia,,41.2362462632234,-8.61645012140672,,,,
7535,285,Altos,,41.2365231023942,-8.6129822741885,,,,
7536,286,D. Manuel II,,41.2367990441585,-8.60902841007776,,,,
7537,287,Souto,,41.2370971161139,-8.60557277777792,,,,
7538,289,Agostinho SIlva Rocha,,41.2357092807069,-8.59768640315384,,,,
7539,290,JOrge Ferreirinha,,41.2346323855651,-8.59567744416334,,,,
7540,291,TV Dr. Augusto Martins,,41.2331466424416,-8.59310269551315,,,,
7541,292,António Moreira Silva,,41.2323430844879,-8.59186284917122,,,,
7542,293,Rio Saída,,41.2300235456302,-8.58834959067861,,,,
7543,294,Rio,,41.2285872219093,-8.58616493689791,,,,
7544,295,Monte Penedo,,41.2286331550284,-8.58015650622711,,,,
7545,296,Primavera Nogueira,,41.2306720582657,-8.57562279752784,,,,
7546,297,Pinhal,,41.2307416382443,-8.57250093073264,,,,
7547,298,TV Ardegães,,41.2288773288456,-8.56955292061973,,,,
7548,299,Prof. Augusto Rezende,,41.2279970702537,-8.56817780333435,,,,
7549,300,Ardegães,,41.2271126213597,-8.56677231666422,,,,
7550,301,Pedro Hispano,,41.2283374213098,-8.56237607123211,,,,
7551,302,Samapio,,41.2297985400088,-8.55974627091908,,,,
7552,303,TV Simões LOpes,,41.2287932870827,-8.55546153975804,,,,
7553,554,Travagem,,41.2273058020019,-8.5540216359672,,,,
7554,555,Rio Leça,,41.2241876747693,-8.55579829612142,,,,
7555,556,Rodrigues Freitas,,41.2218572218526,-8.5577814534746,,,,
7556,557,Igreja Ermesinde,,41.2194767230634,-8.55345077175578,,,,
7557,833,Maia Forum,,41.2338735634731,-8.62389079192129,,,,
7558,834,Ferreira da Cruz,,41.2376009048628,-8.6250594397886,,,,
7559,391,Altino Coelho,,41.2393208400512,-8.62151325166679,,,,
7560,392,Pinta,,41.2420476521107,-8.62102089182494,,,,
7561,393,Aquilino Ribeiro,,41.2455625277765,-8.61870035021378,,,,
7562,394,Hipermercado,,41.2475053377399,-8.61793505993641,,,,
7563,395,Velha de Mandim,,41.2499445257347,-8.61778114080921,,,,
7801,477,Maia - Câmara Municipal,,41.2325101201991,-8.62139921322307,,,,
7802,283,Sobreiro,,41.2339332767881,-8.62045332128012,,,,
7803,284,Estádio Maia,,41.2362462632234,-8.61645012140673,,,,
7804,285,Altos,,41.2365231023942,-8.6129822741885,,,,
7805,286,D. Manuel II,,41.2367990441586,-8.60902841007776,,,,
7806,287,Souto,,41.2370971161139,-8.60557277777792,,,,
7807,288,Cavaco,,41.2373409603102,-8.60187271491318,,,,
7808,289,Agostinho SIlva Rocha,,41.2357092807069,-8.59768640315384,,,,
7809,290,Jorge Ferreirinha,,41.2346323855651,-8.59567744416333,,,,
7810,291,TV Dr. Augusto Martins,,41.2331466424416,-8.59310269551315,,,,
7811,292,António Moreira Silva,,41.2323430844879,-8.59186284917122,,,,
7812,293,Rio Saída,,41.2300235456302,-8.58834959067861,,,,
7813,294,Rio,,41.2285872219093,-8.58616493689791,,,,
7814,295,Monte Penedo,,41.2286331550284,-8.58015650622711,,,,
7815,296,Primavera Nogueira,,41.2306720582657,-8.57562279752784,,,,
7816,297,Pinhal,,41.2307416382443,-8.57250093073264,,,,
7817,298,TV Ardegães,,41.2288773288456,-8.56955292061973,,,,
7818,299,Prof. Augusto Rezende,,41.2279970702537,-8.56817780333435,,,,
7819,300,Ardegães,,41.2271126213597,-8.56677231666422,,,,
7820,222,Via Ardegães,,41.2242891389144,-8.56470002409601,,,,
7821,224,MaiaShopping,,41.220706812897,-8.56066147859938,,,,
7822,223,MaiaShopping,,41.2207344117503,-8.56075255304174,,,,
7823,0,Via Ardegães,,41.2242853100591,-8.564698933219,,,,
7824,564,Central Ardegães,,41.2258749946519,-8.56791533329329,,,,
7825,565,Largo de Ardegães,,41.224845057265,-8.56958685962635,,,,
7826,566,Fonte Novais,,41.2223743786899,-8.56837596627864,,,,
7827,567,Ponte de Ardegães,,41.2207897202659,-8.56983101587972,,,,
7828,568,Rebordãos,,41.2185807936075,-8.57082661627716,,,,
7829,569,Cruzeiro,,41.2163337567853,-8.57064281929624,,,,
7830,570,Central da Corga,,41.2142850204093,-8.57183849527852,,,,
7831,571,Centro Saúde,,41.21129651708,-8.5711568035566,,,,
7832,572,Meilão,,41.2096466421632,-8.57091021996689,,,,
7833,573,Côrga,,41.2097223704646,-8.57508035476367,,,,
7834,574,Águas Santas,,41.2102347627177,-8.57786854608979,,,,
7835,575,R. do Mosteiro,,41.2088131621687,-8.57966949875025,,,,
7836,576,António Santos,,41.2062959141183,-8.58344579980834,,,,
7837,577,Formigueiro,,41.2049459281801,-8.58709065204519,,,,
7838,578,Guadalupe,,41.2032544533669,-8.58717694496048,,,,
7839,582,Dr. Carlos Felgueiras,,41.2006855045162,-8.58310695895185,,,,
7840,583,5 de Outubro,,41.1996046510817,-8.58453909121594,,,,
7841,584,D  Dinis,,41.1979414753318,-8.58456271081509,,,,
7842,585,Vencedores,,41.196825524507,-8.58524422802862,,,,
7843,586,S. Gemil,,41.1942583085178,-8.58560778417798,,,,
7844,587,Paiol,,41.1931565906661,-8.58879426395146,,,,
7845,588,Dr. António Castro Meireles,,41.1911803618878,-8.59229422548908,,,,
7846,589,Cutamas,,41.1901953239441,-8.59171831755171,,,,
7847,590,António Simões,,41.1880436496941,-8.59074098714044,,,,
7848,591,Pedrouços de Baixo,,41.1864802591405,-8.5906982854104,,,,
7849,592,Junta Freguesia de Pedrouços,,41.1839532410048,-8.58986370728507,,,,
7850,593,Gonc. Mendes da Maia,,41.182066314204,-8.58768985614131,,,,
7851,594,Areosa,,41.1813551725765,-8.58467223718921,,,,
7852,601,Areosa - Costa Cabral,,41.1806730004432,-8.58344555863318,,,,
7853,602,Alto Areosa,,41.1785098046755,-8.58425822051436,,,,
7854,603,António Coelho,,41.1776616211035,-8.58486867764478,,,,
7855,604,Santa Justa,,41.1746453229065,-8.5865135142545,,,,
7856,605,Centro Saude,,41.1719650934685,-8.58786298617266,,,,
7857,606,Conde Ferreira,,41.1695838292518,-8.58959337308649,,,,
7858,607,Luis Woodhouse,,41.1682569808995,-8.59179806843608,,,,
7859,608,Silva Tapada,,41.1673602456605,-8.59351523468001,,,,
7860,609,Pires de Lima,,41.1661782510283,-8.59718834751902,,,,
7861,610,Combatentes,,41.1651626883405,-8.59967798301011,,,,
7862,611,Perpetuo Socorro,,41.1621575124127,-8.60375971350542,,,,
7863,612,Marquês,,41.1612800183334,-8.60477086170472,,,,
7864,613,Doze Casas,,41.1585386674621,-8.60454602567195,,,,
7865,614,Fontinha,,41.1552948018236,-8.60468119254266,,,,
7866,615,Jornal Noticias,,41.1535294126353,-8.60730118319939,,,,
7867,616,Praça da República,,41.1540506709443,-8.61202081215058,,,,
7868,616,Praça da República,,41.1540506709443,-8.61202081215058,,,,
7869,617,Jornal de Noticias,,41.1535252358781,-8.60773993572432,,,,
7870,618,Fontinha,,41.1562697401311,-8.60464218634791,,,,
7871,619,Doze Casas,,41.1592629137863,-8.6045055608346,,,,
7872,620,Marquês,,41.1608316034681,-8.60424644075693,,,,
7873,621,Perpetuo Socorro,,41.163044472692,-8.60262324538693,,,,
7874,622,Combatentes,,41.1646795294404,-8.60048096921783,,,,
7875,623,Pires de Lima,,41.1661250090956,-8.5973677099105,,,,
7876,624,Silva Tapada,,41.1672621819431,-8.59371136115927,,,,
7877,625,Luis Woodhouse,,41.1685515070126,-8.59133145596078,,,,
7878,626,Conde FerreIra,,41.169539273474,-8.58964628374964,,,,
7879,627,Centro de Saude,,41.1723997094184,-8.58758679509044,,,,
7880,628,Santa Justa,,41.1754569008713,-8.5861175172025,,,,
7881,629,António Coelho,,41.1774868825963,-8.58497522827977,,,,
7882,630,Alto da Areosa,,41.1787532833194,-8.58411182929746,,,,
7883,631,Areosa - Costa Cabral,,41.1805072871432,-8.58350079823439,,,,
7884,633,Areosa,,41.1811552304572,-8.58459280738225,,,,
7885,634,Enxurreiras,,41.1801934060376,-8.58839806611431,,,,
7886,635,Junta de Freguesia,,41.1838900633845,-8.58990334861745,,,,
7887,636,Pedrouços - Bombeiros,,41.1857844248386,-8.5886591420813,,,,
7888,637,Pedrouços - Cemitério,,41.1888427030021,-8.58895720160924,,,,
7889,638,Cutamas,,41.1902326526614,-8.59177677430583,,,,
7890,639,António Castro Meireles,,41.1911745917165,-8.59230299631427,,,,
7891,640,Paiol,,41.1931440577237,-8.58881448774476,,,,
7892,6410,S. Gemil,,41.1942729565469,-8.58559489372299,,,,
7893,642,Vencedores,,41.1967740400303,-8.58519498268191,,,,
7894,643,D. Dinis,,41.1978861582785,-8.58455876009132,,,,
7895,644,5 de Outubro,,41.1996106266791,-8.58447893708847,,,,
7896,645,Dr. Carlos Felgueiras,,41.2008078009999,-8.58312363466433,,,,
7897,579,Guadalupe,,41.2029297359199,-8.58735663695493,,,,
7898,580,Formigueiro,,41.2048564131638,-8.58705846763538,,,,
7899,581,António Santos,,41.2063905786804,-8.58344168311857,,,,
7900,646,R. do Mosteiro,,41.2086561869134,-8.57990275253816,,,,
7901,647,Águas Santas,,41.2102632317275,-8.57784278811314,,,,
7902,648,Corga,,41.2096431600051,-8.5749334871407,,,,
7903,649,Calvário,,41.2091244355982,-8.57350238624365,,,,
7904,650,Meilão,,41.2096893664653,-8.57090118262718,,,,
7993,651,Centro Saude,,41.2113607838859,-8.57119046661413,,,,
7994,652,Central da Corga,,41.2142357078496,-8.57178290712476,,,,
7995,653,Cruzeiro,,41.2162482461239,-8.57068764155878,,,,
7996,654,Rebordãos,,41.2185243482218,-8.57079839414799,,,,
7997,655,Ardegães Ponte,,41.2208229770448,-8.56975711079095,,,,
7998,656,Fonte de Novais,,41.2224609136643,-8.56843627761287,,,,
7999,657,Largo de Ardegães,,41.2249997436994,-8.56957189228982,,,,
8000,658,Central Ardegães,,41.2258930408434,-8.56788501530539,,,,
8109,1,Vilar de Luz,,41.2768239416786,-8.52558703275246,,,,
8110,2,Borralhas,,41.2776276483194,-8.52744031137185,,,,
8111,3,Camposa,,41.2708526974833,-8.53438697450209,,,,
8112,4,Horizonte,,41.2731788178259,-8.5390271347251,,,,
8113,5,Tv Horizonte,,41.2750794530727,-8.54293372406609,,,,
8114,6,Tv Fonte Leite,,41.2769224636589,-8.54788019494,,,,
8115,7,Estação (S. Romão),,41.2794187620745,-8.55278753299224,,,,
8116,8,Seixal,,41.2792196607708,-8.55475389328095,,,,
8117,9,Cegonheira,,41.2809426905418,-8.55963437034598,,,,
8118,10,Mamoa,,41.2830883927891,-8.56450588022201,,,,
8119,11,Igreja (S. Romão),,41.2835164499261,-8.56669651406531,,,,
8120,12,Pereiró,,41.2837567984651,-8.57440787270995,,,,
8121,13,Biqueira,,41.284089302161,-8.57731975020247,,,,
8122,14,Casal,,41.2830031597213,-8.58164020268226,,,,
8123,15,Monte Soeiro,,41.2826691306337,-8.58371129349667,,,,
8124,16,Nossa Senhora Lurdes,,41.275946841901,-8.57796716658132,,,,
8125,17,Igreja S. Mamede Coronado,,41.2753581382697,-8.57356508340656,,,,
8126,18,Covelo,,41.2728224567666,-8.57415631946988,,,,
8127,19,Parque de Jogos,,41.2709271339462,-8.57454582157274,,,,
8128,20,Feira Nova,,41.2696458442892,-8.57483958520043,,,,
8129,21,Ensino,,41.2665484414719,-8.57477267680704,,,,
8130,22,Monte,,41.2652997152552,-8.57459265569326,,,,
8131,23,Trinaterra,,41.2636026879264,-8.57496013061848,,,,
8132,24,Terra Cavada,,41.2592484274504,-8.57897222044498,,,,
8133,25,Cavadinha,,41.2581077661871,-8.58044846449266,,,,
8134,26,Sá,,41.2559410157887,-8.58261782924797,,,,
8135,27,Junta Freguesia Silva Escura,,41.2526521435636,-8.58317534093302,,,,
8136,28,Taim,,41.2509775711669,-8.58322323338591,,,,
8137,29,Alvaro Moutinho das Neves,,41.247646520538,-8.58518318386697,,,,
8138,30,Devesa,,41.2452153154099,-8.58601416891277,,,,
8139,31,Carvalho,,41.2422642217985,-8.58653278157078,,,,
8140,32,Igreja Nogueira,,41.2385993169037,-8.58728484455805,,,,
8141,33,General Carmona,,41.2402675242638,-8.58983211502394,,,,
8142,34,Estádio Municipal,,41.2405143870508,-8.59127103506354,,,,
8143,35,União Nogueirense,,41.2392011820895,-8.59229273163491,,,,
8144,36,Dr. Augusto Martins,,41.2361225250658,-8.59185843970395,,,,
8145,37,Barroso,,41.2347329588978,-8.58839865041376,,,,
8146,38,Rio,,41.2303630077163,-8.58752450846505,,,,
8147,39,Sidónio Pais,,41.2269575720455,-8.58878964870272,,,,
8148,40,Codiçais,,41.2241903661596,-8.58950018345445,,,,
8149,41,Conchas,,41.221224670249,-8.59065876928138,,,,
8150,42,Arroteia,,41.21837491326,-8.59195105738535,,,,
8151,43,Vessada,,41.2158878141086,-8.59318805716027,,,,
8152,44,Milheiros,,41.2139440264414,-8.59426858652076,,,,
8153,45,Agra,,41.212446271405,-8.59445602404355,,,,
8154,46,1º Maio,,41.2105622054652,-8.59570127632955,,,,
8155,47,Rod. Gonçalves Lage Oeste,,41.206535341389,-8.59701407799823,,,,
8156,48,Terramonte,,41.2043320982234,-8.59664842472012,,,,
8157,49,Parada,,41.2025580958239,-8.59620528817139,,,,
8158,50,Leonardo Coimbra,,41.1991119049855,-8.59979242329928,,,,
8159,51,Henrique Bravo,,41.1958124365662,-8.60113972086116,,,,
8160,52,Laranjeiras,,41.1953238168994,-8.60489676960317,,,,
8161,53,Igreja (S. M. Infesta),,41.1933813960655,-8.61036625334812,,,,
8162,54,S. Mamede,,41.192277848139,-8.61143670849404,,,,
8163,55,Mercado,,41.1904198914593,-8.61185664631744,,,,
8164,56,Flores,,41.1875752701785,-8.61260633133179,,,,
8165,57,Telheiro,,41.1861347655968,-8.61301015856356,,,,
8166,58,Amial,,41.1840162286713,-8.6133416788371,,,,
8167,59,Azenha - Amial,,41.1815739659478,-8.61361850983919,,,,
8168,60,Berlengas,,41.1793805863799,-8.6139009354285,,,,
8169,61,Telheira,,41.1772470628879,-8.61409682298063,,,,
8170,62,Carlos Amarante,,41.1752301962195,-8.61367867188627,,,,
8171,63,Cintura Interna,,41.173738455753,-8.61316101020091,,,,
8172,64,Arca D`Água,,41.1707890988225,-8.61285966060849,,,,
8173,65,Centro Sausde,,41.168113826948,-8.61222076740286,,,,
8174,66,Vale Formoso,,41.1658829639981,-8.61131427041646,,,,
8175,67,Constituição,,41.1641667210056,-8.61100453223548,,,,
8176,68,Hospital Sta. Maria,,41.1603999708966,-8.61165353412948,,,,
8177,69,Lapa,,41.157005787623,-8.61289383060388,,,,
8178,70,Praça da República,,41.1545243525416,-8.61330179843469,,,,
8179,71,Trindade,,41.1523601493984,-8.6100423371672,,,,
8180,73,Aliados,,41.1481117104541,-8.61127663080097,,,,
8181,74,Guilherme Gomes Fernandes,,41.1477122182091,-8.61461360015458,,,,
8182,75,Carmo,,41.1472460442296,-8.61690584397816,,,,
8183,76,Corodaria,,41.1449279941706,-8.61669101362063,,,,
8184,77,Aliados,,41.1475461519386,-8.61099293684646,,,,
8185,79,Trindade - Metro,,41.1516719206008,-8.60959840108433,,,,
8186,80,João das Regras,,41.1552487900924,-8.61175054198266,,,,
8187,81,Lapa,,41.1568114906336,-8.61245018444043,,,,
8188,82,Hospital Santa Maria,,41.1605532777561,-8.61161722283893,,,,
8189,83,Constituição,,41.1641104268159,-8.61100786596999,,,,
8190,84,Vale Formoso,,41.1661230927047,-8.61140839888973,,,,
8191,85,Centro Saude,,41.1691002306504,-8.61262821893004,,,,
8192,86,Arca D`Água,,41.1709629793248,-8.61283730291092,,,,
8193,87,Cintura Interna,,41.1739304561438,-8.61322842923368,,,,
8194,88,Carlos Amarante,,41.175253711085,-8.61368691710092,,,,
8195,89,Telheira,,41.1778766561864,-8.6140639361784,,,,
8196,90,Berlengas,,41.1800520694982,-8.61382269547565,,,,
8197,91,Azenha - Amial,,41.18261254803,-8.61348535510207,,,,
8198,92,Telheiro,,41.1845642289968,-8.61324862654581,,,,
8199,93,Flores,,41.1876188971939,-8.61259337485493,,,,
8200,94,Mercado,,41.1911685228071,-8.61164516185972,,,,
8201,95,S. Mamede,,41.1924856689714,-8.6114257687583,,,,
8202,96,Igreja (S. Mamede Infesta),,41.1936513906843,-8.6086623543117,,,,
8203,97,Laranjeiras,,41.1952098092525,-8.60520055152237,,,,
8204,98,Henriqe Bravo,,41.1957041484135,-8.60126943070467,,,,
8205,99,Leonardo Coimbra,,41.1992122597179,-8.59975700303959,,,,
8206,100,Parada,,41.2018446211114,-8.59613464984506,,,,
8207,101,Terramonte,,41.2043621106199,-8.59665580453943,,,,
8208,102,Gonçalves Lage Oeste,,41.2070292040422,-8.59677444110071,,,,
8209,103,1º Maio,,41.2105799888405,-8.59568823493803,,,,
8210,104,Agra,,41.212495255862,-8.59447235171016,,,,
8211,105,Milheirós,,41.2140000670579,-8.59425088899091,,,,
8212,106,Vessada,,41.2159374664079,-8.59316430992409,,,,
8213,107,Arroteia,,41.2184331466426,-8.59194492703398,,,,
8214,1080,Conchas,,41.2212736067069,-8.59060538327672,,,,
8215,109,Codiçais,,41.2241413967754,-8.58950555853897,,,,
8216,110,Sidóno Pais,,41.2267874822316,-8.58881132700544,,,,
8217,111,Rio,,41.2305163064378,-8.58741777866439,,,,
8218,112,Barroso,,41.2354133664526,-8.5877566543658,,,,
8219,113,Igreja Nogueira,,41.2387800666265,-8.58726141249181,,,,
8220,114,Carvalho,,41.2423385807699,-8.58652333828057,,,,
8221,115,Devesa,,41.2451621698231,-8.58602682310326,,,,
8222,116,Alvaro Moutinho das Neves,,41.2479789968907,-8.58497790235643,,,,
8223,117,Taim,,41.2509969029964,-8.58321622534195,,,,
8224,118,Junta Freguesia Silva Escura,,41.2525741330874,-8.58315427866567,,,,
8225,119,Sá,,41.2559144533631,-8.58263047829623,,,,
8226,120,Cavadinha,,41.2580693662014,-8.5804980652772,,,,
8227,121,Terra Cavada,,41.2591898266039,-8.57904823080954,,,,
8228,122,Trinaterra,,41.2636186256874,-8.57494787053826,,,,
8229,123,Monte,,41.2652458989434,-8.57458404553124,,,,
8230,124,Ensino,,41.2667195475754,-8.57478783609035,,,,
8231,125,Feira Nova,,41.2697079253365,-8.57482716844138,,,,
8232,126,Parque de Jogos,,41.2710293621478,-8.57451855977643,,,,
8233,127,Covelo,,41.2731598595099,-8.57408774813175,,,,
8234,128,Igreja S. Mamede Coronado,,41.2755370758616,-8.57349934951619,,,,
8235,129,Nossa Senhora Lurdes,,41.2759542813817,-8.57797915220379,,,,
8236,0,Monte Soeiro,,41.2827028891045,-8.58372687408792,,,,
8237,131,Casal,,41.28300587928,-8.58159577903022,,,,
8238,133,Biqueira,,41.2840858890996,-8.57723613941635,,,,
8239,133,Pereiró,,41.2837573201365,-8.57434421289379,,,,
8240,134,Igreja S. Romão,,41.2835287015835,-8.56675888384479,,,,
8241,135,Mamoa,,41.2830941507143,-8.56453409362628,,,,
8242,136,Cegonheira,,41.2808750062154,-8.55949246284559,,,,
8243,137,Seixal,,41.2792277277617,-8.5547225206485,,,,
8244,138,Estação S. Romão,,41.2794127140372,-8.55274721404806,,,,
8245,139,TV Fonte Leite,,41.276385809922,-8.54706560456025,,,,
8246,140,Tv Horizonte,,41.2750714154471,-8.54277299308767,,,,
8247,141,Horixonte,,41.2731479921066,-8.53897826240092,,,,
8248,142,Camposa,,41.2708807365186,-8.53438485809543,,,,
8249,659,TV Sidónio Pais,,41.2294251506474,-8.58815890304444,,,,
8250,660,Agra (Milheirós),,41.2139912471194,-8.59466883219713,,,,
8251,661,Matadouro,,41.2161207354053,-8.59705193887401,,,,
8252,662,Flores,,41.2172745856786,-8.59904631944476,,,,
8253,663,Igreja Gueifães,,41.2180449781604,-8.60281299097409,,,,
8254,664,Padre Américo,,41.2196063196998,-8.60407017111523,,,,
8255,665,Manuel Ferreira Pinto,,41.2222560421096,-8.60364415802739,,,,
8256,666,Penedos,,41.2238244064115,-8.60475148123756,,,,
8257,667,Mogos,,41.2265703907195,-8.6047621764934,,,,
8258,668,Francisco Coelho,,41.2283157439341,-8.6085848446137,,,,
8259,669,Maninhos,,41.2296157959367,-8.61069989615287,,,,
8260,670,Fernando Pessoa,,41.230283760392,-8.61272752785244,,,,
8261,671,Santo António,,41.2290745450082,-8.61412951834686,,,,
8262,672,Lavrador,,41.2260062536479,-8.61555603289468,,,,
8263,673,Santos Leite,,41.2272443364524,-8.61845881913632,,,,
8264,674,Igreja Maia,,41.2302120259167,-8.62091535448591,,,,
8265,884,Bairro Siderurgia,,41.2453592454508,-8.6184264738869,,,,
8266,527,José Régio,,41.2439384776916,-8.61709476747055,,,,
8267,527,Raposeira,,41.244163533508,-8.61342927325339,,,,
8268,528,Junta de Freguesia Barca,,41.2458288939655,-8.61119805951206,,,,
8269,533,Gestalinho,,41.2470342306823,-8.60742921229572,,,,
8270,534,Alambique,,41.2486810376065,-8.60844136389307,,,,
8271,0,Bela Vista,,41.2511741602865,-8.60944022185997,,,,
8272,886,Aurélio Silva,,41.254969494553,-8.60852602207481,,,,
8273,381,E B 2/3 Castelo,,41.2588427237,-8.61297438025697,,,,
8274,538,Centro Saude,,41.2594966053711,-8.61440453959126,,,,
8275,380,Secundária Castelo,,41.2584419984322,-8.60995818633973,,,,
8276,381,E B 2/3 CAstelo da Maia,,41.2583297369037,-8.61234188895415,,,,
8277,887,Agra (Castelo),,41.2548107761863,-8.60889899388621,,,,
8278,520,Bela Vista,,41.251476805286,-8.6093880388877,,,,
8279,521,Alambique,,41.2485883303811,-8.60833229804708,,,,
8280,522,Getsalinho,,41.2469414320934,-8.60737859568643,,,,
8281,529,Junta Freguesia Barca,,41.245823671827,-8.61120221354899,,,,
8282,841,Raposeira,,41.2441643791907,-8.6134353619845,,,,
8283,840,José Régio,,41.2439237667819,-8.61710330940784,,,,
8284,885,Bairro Siderurgia,,41.2453581635111,-8.61841793873997,,,,
8285,386,Pinta,,41.2420568772654,-8.62101938073491,,,,
8286,387,Altino Coelho,,41.2393191664006,-8.62151363617152,,,,
8287,835,Ferreira da Cruz,,41.2376445197365,-8.62503099491558,,,,
8288,836,Forum Maia,,41.2338730769758,-8.62395374760349,,,,
8289,282,Maia - Câmara Municipal,,41.2327160840498,-8.62234259765595,,,,
8290,888,Luis de Camões,,41.2332788126106,-8.61882877115003,,,,
8291,842,Lage,,41.2302653560366,-8.61946846313524,,,,
8292,843,Vasco da Gama,,41.2285325134537,-8.61802192765977,,,,
8293,844,Tv Augusto Simões,,41.2263671977934,-8.61617026713497,,,,
8294,677,Santo António,,41.2291188841083,-8.61411701646344,,,,
8295,678,Fernando Pessoa,,41.2302798953128,-8.61271979785553,,,,
8296,679,Maninhos,,41.2296163361292,-8.61069665491442,,,,
8297,680,Francisco Coelho,,41.2282927839141,-8.60857934399919,,,,
8298,681,Mogos,,41.226490963217,-8.60473239193242,,,,
8299,682,Penedos,,41.2238658054588,-8.6047455667215,,,,
8300,683,Manuel Ferreira Pinto,,41.2222284954782,-8.60364587993166,,,,
8301,684,Padre Américo,,41.2195315926048,-8.60410950189187,,,,
8302,685,Igreja Gueifães,,41.2180486567736,-8.60277758188989,,,,
8303,686,Flores,,41.217279614379,-8.59886776262937,,,,
8304,687,Matadouro,,41.2160473662955,-8.59700230759623,,,,
8305,688,Agra (Milheiros),,41.2139885096622,-8.59466631377533,,,,
8306,143,Fonte Leite,,41.2756309335199,-8.54227273719001,,,,
8307,144,Carvoeiras,,41.2780708605783,-8.54298551358539,,,,
8308,145,Outeiral,,41.2853974992551,-8.54440362999704,,,,
8309,146,Carreira,,41.2877109018079,-8.54385357709902,,,,
8310,147,Castanhal,,41.2900684473958,-8.54324157066252,,,,
8311,148,Vale Igreja,,41.292951124433,-8.54213666891214,,,,
8312,149,R. de Cima,,41.295578897927,-8.53951507004095,,,,
8313,150,Central,,41.296943496012,-8.53718914936493,,,,
8314,151,S. Gonçalo,,41.2973679519243,-8.53744999966828,,,,
8315,152,Pedaços,,41.298916748499,-8.54227242654103,,,,
8316,153,Av 1º de Maio,,41.2997113915798,-8.54555460692997,,,,
8317,154,Cruz,,41.3014006933829,-8.54860133594908,,,,
8318,155,Bela Vista,,41.3034015822585,-8.54764972055374,,,,
8319,156,Souto,,41.3118925166975,-8.54622569186831,,,,
8320,157,Lemende,,41.3139524761033,-8.54732850474516,,,,
8321,158,Pero Pinheiro,,41.3171176891462,-8.55068278890206,,,,
8322,159,Tv Liberdade,,41.3208697434631,-8.55327784687385,,,,
8323,160,Colmeias,,41.3237389428844,-8.55395024140057,,,,
8324,161,Mosteiro Beneditino,,41.3253510754174,-8.55495688754483,,,,
8325,162,Santa Barbara,,41.3273245646617,-8.55507610301694,,,,
8326,163,Vitorino,,41.3308488729938,-8.55635404071463,,,,
8327,164,Dr. Lima Carneiro,,41.3362113909475,-8.5577111491289,,,,
8328,165,Vitorino,,41.3308491739186,-8.55635431154376,,,,
8329,166,Santa Barbara,,41.3273607316343,-8.55507981934231,,,,
8330,167,Mosteiro Beneditino,,41.3253686835132,-8.55496422409137,,,,
8331,168,Colmeias,,41.3237371456729,-8.55395114002541,,,,
8332,169,Tv Liberdade,,41.3208703523776,-8.55327820597305,,,,
8333,170,Pero Pinheiro,,41.3170902514856,-8.55056912132474,,,,
8334,171,Lemende,,41.3139748772991,-8.5473389901353,,,,
8335,172,Souto,,41.3119236107625,-8.54624123853817,,,,
8336,173,Bela Vista,,41.303385209493,-8.54766200029437,,,,
8337,174,Cruz,,41.3014061332356,-8.54861112755677,,,,
8338,175,1º de Maio,,41.2997095183122,-8.54554289932554,,,,
8339,176,Pedaços,,41.2989123355658,-8.54225918801524,,,,
8340,177,S. Gonçalo,,41.2973674482066,-8.53744009395284,,,,
8341,178,Central,,41.2969442267222,-8.53718830903185,,,,
8342,179,R  de Cima,,41.2955676451563,-8.53952069654295,,,,
8343,180,Vale Igreja,,41.2929295221322,-8.54214007998502,,,,
8344,181,Castanhal,,41.2900456591087,-8.54332288518921,,,,
8345,182,Carreira,,41.2876904223659,-8.54385903847017,,,,
8346,183,Outeiral,,41.285352004016,-8.54441237949163,,,,
8347,184,Carvoeiras,,41.2779866884065,-8.54294666586178,,,,
8348,185,Fonte Leite,,41.2759125560085,-8.5420798317364,,,,
8349,186,Dr. Délio Santarém,,41.2806599591853,-8.55432638244673,,,,
8350,187,São Bartolomeu,,41.2826421981865,-8.55742406866417,,,,
8351,188,Progitela,,41.2862619209272,-8.56126857790952,,,,
8352,189,Largo Seixinho,,41.2884965485626,-8.56296603945021,,,,
8353,190,Humberto Delgado,,41.2900506390597,-8.56231067404211,,,,
8354,191,Seixinho,,41.2941079200291,-8.56342549247781,,,,
8355,192,Seixinho,,41.2941059582499,-8.56342535236805,,,,
8356,193,Humberto Delgado,,41.2900466559538,-8.56231366142517,,,,
8357,194,Largo Seicinho,,41.2884824448565,-8.56296110329003,,,,
8358,195,Profitela,,41.2862456552463,-8.56125356360551,,,,
8359,196,São Bartolomeu,,41.2826262455175,-8.55741110732649,,,,
8360,197,Dr. Délio Santarém,,41.2806470021087,-8.5543116258919,,,,
8361,396,Fonte Cova,,41.256123256696,-8.61629811042189,,,,
8362,397,Campo de Futebol,,41.2588619455323,-8.61613982665164,,,,
8363,539,Estação Castelo da Maia,,41.2619085951797,-8.61606569722386,,,,
8364,540,Quinta Amarela,,41.2627266927963,-8.61573499376045,,,,
8365,541,5 de Outubro,,41.2653117004498,-8.61329403839481,,,,
8366,698,Mercado Castêlo,,41.2670579510953,-8.61242378363406,,,,
8367,699,Ismai,,41.2677349018135,-8.61688519066178,,,,
8368,707,Bairro,,41.2655486554062,-8.62325104490218,,,,
8369,845,Cruzeiro Ante,,41.2662351689507,-8.62863113353449,,,,
8370,198,Estação S. Romão,,41.2790165869756,-8.55348628640408,,,,
8371,488,Agua Levada,,41.2699787020421,-8.57537652342244,,,,
8372,489,Jorge de Sena,,41.2690909403604,-8.57785893949013,,,,
8373,490,Portela,,41.2701340123175,-8.58116406948663,,,,
8374,491,Cidadelha,,41.2712877295338,-8.58361444521208,,,,
8375,492,Tv. Ponte,,41.2728690591065,-8.58707995905127,,,,
8376,493,Monte,,41.2728716933801,-8.59000160739634,,,,
8377,494,Central Cidadelha,,41.2714837181808,-8.59287444549462,,,,
8378,495,Pisco,,41.270244830583,-8.59575563142221,,,,
8379,496,S. José,,41.2708248609829,-8.60014816747072,,,,
8380,504,Mário Clemente,,41.2725854455251,-8.60006617729838,,,,
8381,505,Senhora da Agonia,,41.2751070650256,-8.60274988316717,,,,
8382,506,Santo António,,41.276598802266,-8.60720409387744,,,,
8383,513,Augusto Nogueira da Silva,,41.2729535353901,-8.60909913101693,,,,
8384,514,Mercado,,41.267679363355,-8.61158322507942,,,,
8385,515,5 de Outubro,,41.2651638869115,-8.61333933444735,,,,
8386,0,Quinta Amarela,,41.2633479151846,-8.61529927745995,,,,
8387,517,Estação Castêlo da Maia,,41.2614118160583,-8.61614079608479,,,,
8388,518,Centro Saude,,41.2595573304556,-8.614402726371,,,,
8389,398,E. B . 2/3 Castelo Maia,,41.2588051942898,-8.6128822639472,,,,
8390,399,Escola Secundária Castelo da Maia,,41.2576829607564,-8.61054345293467,,,,
8391,519,Aurélio Silva Maia,,41.2549434260613,-8.60853905658996,,,,
8392,523,Junta Freguesia de Barca,,41.2466943810229,-8.61139109988986,,,,
8393,524,Padre Abilio Sampaio,,41.2475190986619,-8.61663206635194,,,,
8394,525,Hipermercado,,41.247462905611,-8.61794920439228,,,,
8395,385,Aquilino Ribeiro,,41.2455452521168,-8.6187073777403,,,,
8396,530,Padre Abilio Sampaio,,41.24751705656,-8.61662594016593,,,,
8397,531,Junta Freguesia de Barca,,41.2468502738892,-8.61171259283164,,,,
8398,532,EB 1 Gestalinho,,41.2463945648434,-8.60999994041742,,,,
8399,537,Secundária Castelo da Maia,,41.2577531018776,-8.61068882985077,,,,
8400,539,Estação Castelo da Maia,,41.2613666704427,-8.61614762076138,,,,
8401,540,Quinta Amarela,,41.2632888403342,-8.61534244824639,,,,
8402,500,Mercado (Castêlo),,41.2680619821503,-8.61148325875198,,,,
8403,501,Augusto Nogueira da Silva,,41.2725645006264,-8.60923509431086,,,,
8404,502,Santo António,,41.2765923534201,-8.60712670941447,,,,
8405,503,Senhora da Agonia,,41.275063793132,-8.60275565313745,,,,
8406,504,Mário Clemente,,41.2725645299566,-8.60005688169823,,,,
8407,545,Largo S  José ,,41.2708113021648,-8.60020918372275,,,,
8408,546,Central Cidadelha,,41.2702448304085,-8.59572301441849,,,,
8409,547,Pisco,,41.2718766758641,-8.59275530651881,,,,
8410,548,Monte,,41.272873271147,-8.59005997220875,,,,
8411,549,Tv. da Fonte,,41.2728657805699,-8.58702422907655,,,,
8412,550,Cidadelha,,41.2713110567877,-8.58366397572195,,,,
8413,551,Portela,,41.2700988161503,-8.58114060574178,,,,
8414,552,Jorge Sena,,41.2691423371184,-8.57773558535176,,,,
8415,553,Água Levada,,41.2699746887366,-8.57532234734961,,,,
8416,507,Ciccopn,,41.2796248573631,-8.6064282495288,,,,
8417,508,Agra Morta,,41.2828802791257,-8.60546231004587,,,,
8418,689,Agra Club,,41.2840854130754,-8.61031663606555,,,,
8419,690,Patriomónio,,41.2829650999383,-8.613388251851,,,,
8420,691,Paiço,,41.2798895203695,-8.61429558006111,,,,
8421,702,Igreja S. Pedro Avioso,,41.2765863954836,-8.6174214728094,,,,
8422,703,Ferronho,,41.2776792769099,-8.61345486094442,,,,
8423,704,Paiço,,41.2799587213773,-8.61423132107047,,,,
8424,705,Património,,41.2829748193315,-8.61333965373574,,,,
8425,706,Agra Club,,41.2840844627584,-8.61032138782156,,,,
8426,511,Agra Morta,,41.2828304310968,-8.60546379848425,,,,
8428,512,Ciccopn,,41.2795840444699,-8.60644551705953,,,,
8429,382,Campo Futebol,,41.2587981899796,-8.61613492293561,,,,
8430,383,Velha Mandim,,41.2499066870407,-8.61800513041106,,,,
8431,384,Hipermercado,,41.2478684125458,-8.6192265432689,,,,
8432,846,Ribeiro,,41.2686431945212,-8.62999440270825,,,,
8433,847,Nova da Bajouca,,41.2697112378029,-8.63057706283297,,,,
8434,848,Rua E,,41.2695816762753,-8.63254295460766,,,,
8435,849,Caminho de Baixo,,41.2721066695568,-8.63327991507016,,,,
8436,850,Bairro Bajouca,,41.2748750877564,-8.63368861852095,,,,
8437,851,E. B. 1 Bajouca,,41.2746382143415,-8.63665767851372,,,,
8438,852,Cimo Vila,,41.2708052862705,-8.63771894889486,,,,
8439,853,Australias,,41.2676252350273,-8.63655830376134,,,,
8440,854,Sá,,41.2655495647851,-8.63496766609809,,,,
8441,855,Eucalipto Grosso,,41.2650685740179,-8.63679759113524,,,,
8442,856,Monte Abraes,,41.2650619300533,-8.63987668941673,,,,
8443,857,Junta Freguesia Gemunde,,41.2658900218369,-8.64167001179622,,,,
8444,858,Gemunde Farm,,41.2667505880658,-8.64275492054411,,,,
8445,859,Igreja Gemunde,,41.2678856482979,-8.64524805861279,,,,
8446,860,Souto,,41.2688564038258,-8.64647873372702,,,,
8447,861,Barranha,,41.2673879909824,-8.65179854716756,,,,
8448,862,Tv Outeiro,,41.2642698035563,-8.64798459479294,,,,
8449,863,Castanhal,,41.2598435825783,-8.64629757863795,,,,
8450,864,Outeiro,,41.2574479378732,-8.64458194363552,,,,
8451,442,Campos Verdes,,41.256631079384,-8.646763408427,,,,
8452,893,Frederico Ulrich,,41.2556240237661,-8.65037880309972,,,,
8453,443,Mestre Clara,,41.2550084200691,-8.65260077578464,,,,
8454,444,Guardeiras,,41.2539234951491,-8.65569622374194,,,,
8455,445,Cruz das Guardeiras,,41.2521618370716,-8.65810303797141,,,,
8456,255,LIdador,,41.2500325953911,-8.65929352427409,,,,
8457,256,Estação Pedras Rubras,,41.2479647721521,-8.66234068452358,,,,
8458,257,Dr. A. Carlos Maia,,41.2455625953375,-8.66473375984091,,,,
8459,258,Feira Pedras Rubras,,41.2423457662675,-8.66604355908975,,,,
8460,265,Feira Pedras Rubras,,41.2424523188343,-8.6660299927649,,,,
8461,266,Dr. A. Carlos Maia,,41.2454840679277,-8.66475517991307,,,,
8462,268,Estação Pedras Rubras,,41.2476746297773,-8.66296762405448,,,,
8463,455,Fernando Pessoa,,41.2497869805327,-8.65962825226142,,,,
8464,457,Cruz das Guardeiras,,41.2521960714922,-8.6580715058518,,,,
8465,458,Guardeiras,,41.2545331891818,-8.6540331984019,,,,
8466,459,Mestre Clara,,41.2550356195378,-8.65251631276332,,,,
8467,892,Frederico Ulrich,,41.2556302336003,-8.65035722162035,,,,
8468,460,Campos Verdes,,41.2566907697618,-8.64654025078889,,,,
8469,865,Outeiro,,41.2574293724687,-8.64456626643215,,,,
8470,866,Castanhal,,41.2598005111839,-8.64625450793347,,,,
8471,867,Tv Outeiro,,41.2641168829619,-8.6479137571868,,,,
8472,868,Barranha,,41.2673502624325,-8.65176224273556,,,,
8473,869,Souto,,41.2687941205839,-8.64652686251086,,,,
8474,870,Igreja Gemunde,,41.2678943697387,-8.6452563834859,,,,
8475,891,Gemunde Farm,,41.2667660410769,-8.64277673622111,,,,
8476,871,Junta Freguesia Gemunde,,41.2658625498703,-8.64159523800739,,,,
8477,872,Monte Abraes,,41.2650733917029,-8.63990085122432,,,,
8478,873,Eucalipto Grosso,,41.2650776436704,-8.63675949725334,,,,
8479,874,Sá,,41.2654070285603,-8.63509323673239,,,,
8480,874,Sá,,41.266804496523,-8.63621621559315,,,,
8482,876,Cimo Vila,,41.2707845479235,-8.63769821079607,,,,
8483,877,E.B. 1 Bajouca,,41.2746606091547,-8.63661185523827,,,,
8484,878,Bairro Bajouca,,41.2747391061831,-8.63369523364784,,,,
8485,879,Caminho de Baixo,,41.2720345514864,-8.63326352523316,,,,
8486,880,Rua E,,41.2695433878712,-8.63253737123993,,,,
8487,881,Nova da Bajouca,,41.2697130911406,-8.63054629391605,,,,
8488,882,Ribeiro,,41.2686881683423,-8.63001342966206,,,,
8489,883,Cruzeiro Anta,,41.2662717299418,-8.62864916994761,,,,
8490,718,Bairro,,41.2655762972124,-8.62319576049422,,,,
8491,696,Ismai,,41.2677349021821,-8.61695863264863,,,,
8492,697,Mercado Castelo,,41.2669813132831,-8.61229906188914,,,,
8493,399,Escola Secundária Castêlo Maia,,41.2576813210924,-8.61053997177628,,,,
8494,400,Junta Freguesia Gondim,,41.2619955313415,-8.59894521029323,,,,
8495,401,Campo Futebol Gondim,,41.2629328962908,-8.59834282479597,,,,
8496,402,Igreja Gondim,,41.2624120038595,-8.60113010150006,,,,
8497,403,Alzira J. Guimarães,,41.2607599536456,-8.60264378344747,,,,
8498,889,Via Diagonal,,41.2595580112173,-8.60281940498603,,,,
8499,404,Arquinho,,41.2575168297572,-8.60208878240335,,,,
8500,405,Porto Bom,,41.2558046477668,-8.60061830041933,,,,
8501,406,Liberdade,,41.2560809898878,-8.59751809913383,,,,
8502,407,Nova de Frejufe,,41.2566978012893,-8.595178532419,,,,
8503,408,Largo Frejufe,,41.2562904049468,-8.59132815196281,,,,
8504,409,Cantral Frejufe,,41.253276312183,-8.59199872793397,,,,
8505,410,Nossa Senhora Caridade,,41.2488096874146,-8.59574518363063,,,,
8506,411,Cesário Verde,,41.245904484662,-8.59549832124233,,,,
8507,412,Xisto,,41.2439028551895,-8.59415550525171,,,,
8508,839,Nogueirense,,41.2407501394279,-8.5934844183508,,,,
8509,413,Alexandre Herculano,,41.2538955157141,-8.57969536633433,,,,
8510,414,António Ferreira da Silva,,41.2562494935799,-8.57305795255794,,,,
8511,415,Viaduto,,41.2559787693186,-8.5674412475976,,,,
8512,416,Cardosas,,41.2567043288552,-8.56266599351796,,,,
8513,417,Apeadeiro,,41.2595798087665,-8.55798924612312,,,,
8514,418,S. Frutuoso,,41.2606629073374,-8.55556801002249,,,,
8515,324,Igreja Folgosa,,41.2591390579055,-8.54692891955626,,,,
8516,207,Agra,,41.255531535883,-8.54571609769928,,,,
8517,325,Alto de Arcos,,41.2544974316482,-8.54524603280179,,,,
8518,326,Tv Eng Luis Almeida,,41.2530102140334,-8.54109806512202,,,,
8519,327,Calçada de Real,,41.2473455546538,-8.53953029751001,,,,
8520,328,Santa Cristina,,41.2457922695937,-8.53954277646844,,,,
8521,329,Av. 24 de Julho,,41.2436517839149,-8.54226697121933,,,,
8522,330,Serra,,41.2410895320264,-8.54089000792901,,,,
8523,331,Malmarinhas,,41.2426267783888,-8.5396077864901,,,,
8524,332,Baguim,,41.2432937321613,-8.53874666553145,,,,
8525,333,Dr. Francisco Sá Carneiro,,41.2426039324787,-8.52989069181805,,,,
8526,334,Correios Alfena,,41.240654036228,-8.5284523699206,,,,
8527,335,Central Barreiro,,41.2375342979467,-8.53308938781344,,,,
8528,336,Senhora da Piedade,,41.2356153566645,-8.53218679179492,,,,
8529,337,E. B. 2/3 Alfena,,41.2367264469896,-8.52965619160404,,,,
8530,338,Varzea,,41.24062406129,-8.52665620626098,,,,
8531,339,Junta Freguesia Alfena,,41.2387078978593,-8.5256834057929,,,,
8532,340,Igreja Alfena,,41.2369915901636,-8.52584632563287,,,,
8533,341,Cemitério Alfena,,41.2349952693256,-8.52334965643256,,,,
8534,342,Secundária Lombelho,,41.2331643339508,-8.51670972482339,,,,
8535,343,Comendador Matos,,41.2354660074384,-8.52344613350691,,,,
8536,344,Igreja Alfena,,41.237010120281,-8.5258445814924,,,,
8537,345,Junta Freguesia Alfena,,41.238834470168,-8.5256701972556,,,,
8538,346,Varzea,,41.2406237854361,-8.52643214864208,,,,
8539,347,E. B. 2/3 Alfena,,41.2365388849925,-8.5300921978541,,,,
8540,348,Senhora Piedade,,41.2355899934441,-8.53240373260905,,,,
8541,349,Central do Barreiro,,41.2376004017788,-8.5331243832983,,,,
8542,350,Correios Alfena,,41.2407626996898,-8.52839777259917,,,,
8543,351,Dr. Francisco Sá Carneiro,,41.2430264265964,-8.5308618719707,,,,
8544,352,Baguim,,41.2433137706682,-8.53878674211701,,,,
8545,353,Malmarinhas,,41.2412999982264,-8.54061338123823,,,,
8546,354,Av. 24 Julho,,41.2436743972732,-8.54235114227871,,,,
8547,355,Santa Cristina,,41.245802814446,-8.53950718690712,,,,
8548,356,Calçada Real,,41.2473763013285,-8.53954874516686,,,,
8549,357,Tv. Eng. Luis Almeida,,41.2530501519186,-8.54111054534192,,,,
8550,358,ALto de Arcos,,41.2545027028741,-8.54534617506556,,,,
8551,314,Agra,,41.2555738926261,-8.54573727568073,,,,
8552,359,Igreja Folgosa,,41.2592775813031,-8.54693610076662,,,,
8553,360,S. Frutuoso,,41.2606610254917,-8.55566307500098,,,,
8554,361,Apeadeiro,,41.2595576746306,-8.55803094467333,,,,
8555,362,Cardosas,,41.2566949250135,-8.56270317332731,,,,
8556,363,Viaduto,,41.2560144853839,-8.56757337789638,,,,
8557,364,António Ferreira da Silva,,41.2562647012696,-8.57302753660061,,,,
8558,365,Alexandre Herculano,,41.2539073610296,-8.57960898255307,,,,
8559,838,Nogueirense,,41.2407717483317,-8.59348278112002,,,,
8560,367,Xisto,,41.2439259471767,-8.5941661795533,,,,
8561,368,Cesário Verde,,41.2458877976062,-8.59548330307956,,,,
8562,369,Nossa Senhora Caridade,,41.2490409007852,-8.59555505622964,,,,
8563,370,Central de Frejufe,,41.2532890408283,-8.59198911639127,,,,
8564,484,Largo Frejufe,,41.2565318783555,-8.59136161977475,,,,
8565,372,Nova de Frejufe,,41.256701448772,-8.59516833160148,,,,
8566,373,Liberdade,,41.2560791246139,-8.59752963057177,,,,
8567,374,Porto Bom,,41.2557846501212,-8.60056830709717,,,,
8568,375,Arquinho,,41.2575262944602,-8.60213492126317,,,,
8569,890,Via Diagonal,,41.2595085201401,-8.60280290836142,,,,
8570,376,Alzira J. Magalhães,,41.2607247714216,-8.60265294084066,,,,
8571,377,Igreja Gondim,,41.2623745123242,-8.601194373628,,,,
8572,378,Campo Futebol Gondim,,41.2629189444601,-8.59832369118245,,,,
8573,379,Junta Freguesia de Gondim,,41.2619777370051,-8.59908072548286,,,,
8574,421,Xisto,,41.2473857696826,-8.59720645014866,,,,
8575,422,Varzea,,41.246196793405,-8.59926512875826,,,,
8576,423,Soutinho,,41.2434297385504,-8.6035327171552,,,,
8577,424,Igreja Vermoim,,41.2426064109111,-8.6066080095995,,,,
8578,425,Padre Manuel Alves Rego,,41.2423706233129,-8.60841230185331,,,,
8579,426,Nova dos Altos,,41.2379024847536,-8.6089587871203,,,,
8580,478,Nova dos Altos,,41.2376032888934,-8.60904676811403,,,,
8581,479,Padre Manuel Alves Rego,,41.2423748728706,-8.60841329337414,,,,
8582,480,Igreja Vermoim,,41.2426098427591,-8.60646384437463,,,,
8583,481,Soutinho,,41.2434607107881,-8.60343979821709,,,,
8584,482,Varzea,,41.2462110760737,-8.59923484913524,,,,
8585,483,Xisto,,41.2474536903047,-8.59710456823808,,,,
8586,322,Bairro Folgosa,,41.2693954038824,-8.53866552579807,,,,
8587,323,Piscinas Folgosa,,41.2666075951065,-8.54528751814236,,,,
8588,204,Calvário,,41.2645144366825,-8.54609134567366,,,,
8589,205,Senra,,41.2623188865148,-8.54629818852068,,,,
8590,206,Igreja Folgosa,,41.2601413611804,-8.54676049162405,,,,
8591,419,Igreja Silva Escura,,41.2579439205018,-8.58416046640951,,,,
8592,420,Largo Frejufe,,41.2564388105829,-8.59126019450395,,,,
8593,484,Largo Frejufe,,41.2564472338314,-8.59123305245335,,,,
8594,485,Igreja Silva Escura,,41.2579409113713,-8.58421564105067,,,,
8595,315,Igreja Folgosa,,41.2601733233238,-8.54674605673927,,,,
8596,316,Senra,,41.2622914815122,-8.54629874805376,,,,
8597,317,Calvário,,41.264613591688,-8.54607198389431,,,,
8598,487,Piscinas Folgosa,,41.2666439582161,-8.54522528626005,,,,
8599,486,Bairro Folgosa,,41.2694055441944,-8.53861414625324,,,,
8600,827,E. B: 2/3 Nogueira,,41.2289816985695,-8.59354916104153,,,,
8601,829,Escolas Maia,,41.2333128142622,-8.61369253526443,,,,
8602,830,Luis de Camões,,41.2328572844498,-8.6188306880094,,,,
8603,798,S. P. Fins (C. Futebol),,41.2457616051744,-8.56439719188862,,,,
8604,208,Central,,41.2539290311697,-8.54584029463805,,,,
8606,799,Largo Curtiêlo,,41.2441332320906,-8.5493919562923,,,,
8607,800,Alberto Marques Gondão,,41.2441729380768,-8.54629608811085,,,,
8608,801,Penas,,41.2386969972536,-8.54271210283747,,,,
8609,802,Particular Amadeu Vilar,,41.233439344783,-8.54494463053513,,,,
8610,217,Travagem Escolas,,41.2289025309652,-8.55412998399422,,,,
8611,828,E. B 2/3 Nogueira,,41.2289686273389,-8.59356064800677,,,,
8613,304,Travagem Escolas,,41.2295480253742,-8.55417779257325,,,,
8614,803,Particular Amadeu Vialar,,41.2335343889799,-8.54488950423702,,,,
8615,804,Penas,,41.2388495202409,-8.54261577865186,,,,
8616,805,Gondão,,41.244172359845,-8.5462890341833,,,,
8617,806,Largo Curtiêlo,,41.2441309651717,-8.54942612039186,,,,
8618,313,Central,,41.253982231002,-8.54580940377931,,,,
8619,807,Largo Ardegães,,41.2249964132915,-8.56966848122642,,,,
8620,808,Pisão,,41.2227944107656,-8.57235089465424,,,,
8621,809,Arregadas - Viaduto,,41.2199054353904,-8.57449654412547,,,,
8622,810,Quelhas,,41.2188697486328,-8.57878293070411,,,,
8623,811,Arregadas,,41.216793850943,-8.58425798715133,,,,
8624,812,Igreja Milheirós,,41.214734683363,-8.58828511355345,,,,
8625,813,Correios Milheirós,,41.2152009788018,-8.59046633540758,,,,
8626,823,Enxinhães,,41.2221458735608,-8.59886505326882,,,,
8628,824,Largo dos Mogos,,41.226385369794,-8.60046317643744,,,,
8629,825,Casal dos Mogos,,41.2282214885833,-8.60039851729564,,,,
8630,826,Cavaco,,41.2306904134739,-8.59943575098612,,,,
8641,818,Aldeia Nova,,41.2208291506962,-8.58649088004608,,,,
8642,819,Conchas,,41.2208850479889,-8.58900975515879,,,,
8643,820,Centro Saude,,41.2180540277424,-8.58895937962705,,,,
8644,821,Tv Escolas,,41.2168023738104,-8.58942093330936,,,,
8645,822,Correios Milheirós,,41.2153254095455,-8.5904963863834,,,,
8646,814,Tv Escolas,,41.2175864088273,-8.58891847687773,,,,
8647,816,Centro Saude,,41.2184617414999,-8.58892864811247,,,,
8648,0,Conchas,,41.220879582174,-8.58895619108165,,,,
8649,817,Aldeia Nova,,41.2209551755004,-8.58643015865349,,,,
8650,894,Centro Escolar Gandra,,41.2164560830444,-8.56242184606712,,,,
8651,894,Centro Escolar Gandra,,41.2162349122613,-8.5624559894315,,,,
